Name,Latitude,Longitude,,keyword,
88JC,37.58406239,126.8203433,,,
가락IC,35.1654229,128.8920051,,,
가산IC,36.09581386,128.5332817,,,
가조IC,35.70266646,128.0225621,,,
가좌IC,37.48451192,126.6748716,,,
감곡IC,37.12456128,127.6701039,,,
강릉IC,37.74940747,128.8387524,,,
강릉JC,37.77257965,128.8321266,,,
강일IC,37.57298285,127.1655061,,,
강진IC,34.69748972,126.7150934,,,
강촌IC,37.73462295,127.6245735,,,
거창IC,35.67927368,127.9352663,,,
건천IC,35.8437967,129.0852646,,,
검단양촌IC,37.60061093,126.6183942,,,
경기광주IC,37.44796257,127.2696174,,,
경기광주JC,37.37346851,127.3167727,,,
경부고속국도시점,0,0,,,한남IC/구서IC
경산IC,35.87694385,128.7876298,,,
경주IC,35.80711507,129.1851116,,,
계룡IC,36.25237416,127.2800447,,,
계양IC,37.54408254,126.7487437,,,
고기JC남측,37.36117875,127.0628657,,서분당(고기)IC,
고기JC북측,37.36117875,127.0628657,,서분당(고기)IC,
고기터널남측,37.35120705,127.0629172,,고기터널,
고기터널북측,37.35120705,127.0629172,,고기터널,
고덕IC,36.76191563,126.7050999,,,
고등IC,37.42774251,127.0908185,,,
고령IC,35.70168473,128.2512725,,,
고령JC,35.75775298,128.3726546,,,
고모IC,37.80905957,127.1587332,,,
고서JC,35.22416455,126.9605661,,,
고성IC,35.00759233,128.3495621,,,
고양IC,37.65647275,126.817907,,,
고양JC,37.66779626,126.8534749,,,
고잔TG,37.38236691,126.7143266,,,
고창IC,35.43984844,126.6638881,,,
고창JC,35.41718383,126.6529983,,,
고흥IC,34.8238832,127.3420288,,,
곡성IC,35.22608139,127.2233007,,,
곤양IC,35.05705813,127.9672392,,,
곤지암1터널,37.37526908,127.3627628,,,
곤지암IC,37.35244913,127.3208966,,,
곤지암JC,37.30926994,127.355313,,,
곤지암JCT,37.37346851,127.3167727,,,
공주IC,36.49145202,127.121646,,,
공주JC,36.48563917,127.0918404,,,
공항신도시JC,37.48533499,126.4888914,,,
공항입구IC,37.50561412,126.5074323,,,
광교IC,37.29969474,127.0503039,,,
광명IC,37.43979186,126.8499826,,,
광명역IC,37.4041271,126.8792885,,,
광산IC,35.21713178,126.8279603,,,
광양IC,34.97340494,127.6035243,,,
광재IC,35.30533003,128.8965858,,,
광천IC,36.49845278,126.5851913,,,
괴산IC,36.86721659,127.9233788,,,
구례화엄사,35.25728671,127.4979666,,,
구례화엄사IC,35.24998961,127.419207,,,
구리IC,37.61543976,127.1416346,,,
구리TG,37.58970968,127.1570026,,,
구미IC,36.10898911,128.3607373,,,
구병산Hi,36.44843772,127.8703213,,구병산하이패스ic,
구서IC,35.25065187,129.0975839,,,
구포IC,35.21552914,129.003101,,,
군북IC,35.28154837,128.324751,,,
군산IC,36.00904775,126.7993687,,,
군위IC,36.19913053,128.5590463,,,
군위JC,36.16220341,128.5484822,,,
군위JCT,36.16220341,128.5484822,,,
군자JC,37.36300541,126.7685886,,,
군자TG,37.35762137,126.7801816,,,
군포IC,37.32609124,126.9225952,,,
근덕IC,37.3953262,129.202255,,,
금강IC,36.279894,127.6744799,,,
금곡IC,37.34978088,127.101573,,,
금광지하차도남측,37.2812711,127.0730131,,금광지하차도,
금광지하차도북측,37.2812711,127.0730131,,금광지하차도,
금산IC,37.51084594,126.5229521,,,
금산사IC,35.73681318,126.9891933,,,
금왕꽃동네IC,36.95481127,127.5511948,,,
금정IC,35.28366182,129.1121155,,,
금천IC,37.46021025,126.8907139,,,
금촌IC,37.75038607,126.7914521,,,
금토JC,37.41542457,127.0849341,,,
금토TG,37.4107129,127.0814272,,,
금호JC,35.89262082,128.5252114,,,
기장IC,35.2837147,129.1502208,,,
기장JC,35.28087304,129.2257874,,,
기장철마IC,35.2837147,129.1502208,,,
기흥IC,37.22223397,127.1010006,,,
기흥동탄IC,37.21644166,127.0971352,,,
김제IC,35.77569084,127.002557,,,
김천IC,36.13383055,128.0946623,,,
김천JC,36.15965955,128.2663162,,,
김포IC,37.59743214,126.7755691,,,
김포TG,37.59278206,126.7676162,,,
김포공항IC,37.58384487,126.7910979,,,
김해JC,35.224187,128.9240487,,,
김해가야Hi,35.27113571,129.0030233,,김해가야하이패스IC,
나주IC,35.10145111,126.6956551,,,
낙동JC,36.36609378,128.2391293,,,
낙동JCT,36.36609378,128.2391293,,,
남강릉IC,37.69398301,128.891382,,,
남경주IC,35.73234645,129.3147012,,,
남고양IC,37.58357813,126.8539934,,,
남고창IC,35.40073392,126.6780706,,,
남공주IC,36.42649464,127.0808959,,,
남광명JC,37.41108771,126.8576305,,,
남광산IC,35.18320019,126.744595,,,
남구리IC,37.57879142,127.1351892,,,
남구미IC,36.06990595,128.3685483,,,
남군포IC,37.32436726,126.9263518,,,
남김천IC,36.0592753,128.2676623,,,
남대구IC,35.83697313,128.5277399,,,
남대전IC,36.26512242,127.473904,,,
남동IC,37.43378922,126.7122432,,,
남문대교,35.10126019,128.7657021,,,
남밀양IC,35.45121191,128.7736861,,,
남별내IC,37.68330301,127.1352086,,,
남봉담IC,37.199242,126.9480338,,,
남봉담JC,37.199242,126.9480338,,남봉담ic,ic tg
남비봉IC,37.20404868,126.8785197,,,
남사진위IC,37.10634955,127.1161726,,,
남상주IC,36.36784252,128.1406421,,,
남성주IC,35.84207251,128.3246811,,,
남세종IC,36.42465278,127.2912868,,,
남순천TG,34.88405484,127.4520031,,,
남안동IC,36.47504813,128.621327,,,
남안산IC,37.33042248,126.7499986,,,
남안산JC,37.30206817,126.7471542,,,
남안성IC,36.97593607,127.2443155,,,
남양산IC,35.32531528,129.0253876,,,
남양양IC,37.91525465,128.7897409,,,
남양주IC,37.60027599,127.1546558,,,
남양주TG,37.59757563,127.241213,,,
남양평Hi,37.48094654,127.4672929,,,
남여주IC,37.25305591,127.5881088,,,
남원IC,35.43008772,127.396004,,,
남원JC,35.40533251,127.307372,,,
남원주IC,37.32411907,127.9300595,,,
남이JC,36.59813,127.4199908,,,
남이천IC,37.18608873,127.4413561,,,
남인천TG,37.43204772,126.7644126,,,
남장성IC,35.22574274,126.7909736,,,
남장성JC,35.22574274,126.7909736,,남장성ic,ic tg
남제천IC,37.07617968,128.1818786,,,
남지IC,35.39860966,128.4826792,,,
남천안IC,36.75404585,127.1649675,,,
남청라JC,37.51476944,126.6256003,,남청라ic,ic tg
남청주IC,36.5336469,127.430393,,,
남춘천IC,37.75158621,127.7234935,,,
남칠곡TG,35.91689838,128.5149837,,,
남포항IC,35.94620787,129.3899881,,,
남풍세IC,36.72306315,127.1414386,,,
내서JC,35.25881338,128.5153066,,,
내장산IC,35.5093854,126.8019994,,,
내촌IC,37.77329122,127.2321905,,,
내포IC,37.85032567,126.7655184,,,
냉정JC,35.22088478,128.7950381,,,
노오지JC,37.57031457,126.7532332,,,
노은JC,37.03609812,127.8043216,,,
노포,35.28077586,129.0915637,,,
노포IC,35.28366182,129.1121155,,,
노포JC,35.28784858,129.1006271,,,
논산IC,36.12227978,127.1344215,,,
논산JC,36.08193483,127.1026753,,,
다부IC,36.04761216,128.5170421,,,
다사IC,35.85466331,128.4699181,,,
단성IC,35.28981289,127.9523194,,,
단양IC,36.91788107,128.364642,,,
달뫼IC,37.65818664,127.3281996,,,
달서IC,35.8304051,128.4872582,,,
달성IC,35.76986525,128.4737453,,,
담양IC,35.28056286,126.9795901,,,
담양JC,35.25193412,126.9697563,,,
당진IC,36.8926228,126.7065768,,,
당진JC,36.85176871,126.6194489,,,
대감JC,35.26991022,128.9837724,,,
대곶IC,37.64767505,126.603228,,,
대관령IC,37.67878391,128.6954646,,,
대구외곽선2구간시점,0,0,,,
대덕JC,35.24649229,127.0350827,,,
대동IC,35.25923579,128.9829584,,,
대동JC,35.28176929,128.9851036,,,
대소IC,36.98144749,127.4706988,,,
대소JC,36.94098907,127.472951,,,
대신IC,37.38464725,127.5817504,,,
대왕판교IC,37.40924292,127.0909068,,,
대저JC,35.21925387,128.9742981,,,
대전IC,36.36329081,127.4512025,,,
대천IC,36.33324945,126.5753988,,,
대청IC,35.17928352,128.7853986,,,
덕소삼패IC,37.59248572,127.2076853,,,
덕유산IC,35.84230012,127.6464707,,,
덕천IC,35.21552914,129.003101,,,
덕평IC,37.24145774,127.365168,,,
도개IC,36.31363004,128.3219486,,,
도동JC,35.91262576,128.6624897,,,
도롱IC,34.90379146,127.5264032,,,
도리JC,37.39542089,126.8490095,,,
도척IC,37.28656298,127.32622,,,
도화IC,37.46192115,126.6719945,,,
동경주IC,35.78218826,129.4243776,,,
동고령IC,35.75294203,128.358244,,,
동고성IC,34.97193773,128.3840811,,,
동곤지암IC,37.38089797,127.4006599,,,
동광산TG,35.14392803,126.7532617,,,
동광양IC,34.95929131,127.6546781,,,
동광주IC,35.18411113,126.927429,,,
동광주TG,35.20767904,126.9392688,,,
동군산IC,35.94482277,126.8340321,,,
동군위IC,36.09770143,128.6608512,,,
동군포IC,37.32893048,126.9346924,,,
동김천IC,36.13592961,128.1762831,,,
동김해IC,35.22539582,128.8947277,,,
동남원IC,35.47625801,127.4781722,,,
동대구IC,35.8649995,128.68632,,,
동대구JC,35.885695,128.6944382,,,
동둔내Hi,37.52414218,128.2787447,,,
동림IC,35.19277289,126.8642416,,,
동마산IC,35.25262823,128.5967973,,,
동명동호IC,35.96467029,128.5514736,,,
동부산IC,35.20066652,129.203119,,,
동산TG,0,0,,,폐쇄
동상주IC,36.37596622,128.2965355,,,
동서울TG,37.51720294,127.2211137,,,
동서천IC,36.04280712,126.7844576,,,
동서천JC,36.05832612,126.772708,,,
동수원IC,37.29969474,127.0503039,,,
동순천IC,34.94848299,127.5521565,,,
동시흥JC,37.39281251,126.8647028,,,
동안동IC,36.451062,128.8905131,,,
동안산IC,37.30076249,126.9366162,,,
동양평IC,37.39955464,127.7532851,,,
동여주IC,37.40025225,127.6735042,,,
동영천IC,35.99480012,128.9573701,,,
동의정부IC,37.72052911,127.1123851,,,
동전주IC,35.84620777,127.1894032,,,
동창원IC,35.27785268,128.694748,,,
동청송영양IC,36.49392649,129.1222366,,,
동충주IC,37.06420591,127.9209714,,,
동탄IC,37.20464856,127.1342059,,,
동탄JC,37.17757846,127.0959323,,,
동탄JCT,37.17757846,127.0959323,,,
동판교IC,37.41275524,127.1056793,,,
동함평IC,35.05098522,126.5457112,,,
동해IC,37.51186194,129.0951587,,,
동홍천IC,37.75854363,127.9655845,,,
두물머리Hi,37.56354424,127.3816136,,두물머리IC,
둔내IC,37.49264606,128.2056607,,,
둔대JC,37.32235903,126.9050934,,,
둔산IC,35.90135526,128.6900549,,,
마곡사IC,36.49495763,127.0240812,,,
마도IC,37.18796898,126.7854495,,,
마도JC,37.18827539,126.775745,,,
마산TG,35.25891348,128.6061853,,,
마성IC,37.28348864,127.1764137,,,
마장JC,37.25334742,127.4155883,,,
만종JC,37.36508741,127.9023848,,,
망상IC,37.58390091,129.0929026,,,
매송IC,37.27754218,126.8972883,,,
면온IC,37.56112162,128.3670684,,,
면천IC,36.82354241,126.6474487,,,
목감IC,37.39655039,126.8715624,,,
목동교IC,37.53043749,126.8898558,,,
목천IC,36.75968465,127.2178672,,,
목포IC,34.84094979,126.4241644,,,
목포TG,34.86260937,126.4863613,,,
무안IC,35.00773393,126.4920464,,,
무안공항IC,35.00254434,126.390697,,,
무주IC,35.97728909,127.6459421,,,
무창포IC,36.23850917,126.5612186,,,
문경새재IC,36.70118387,128.1114051,,,
문막IC,37.31196655,127.8266131,,,
문산IC,35.17229851,128.1600892,,,
문수IC,35.51724729,129.2495825,,,
문의청남대IC,36.52984023,127.507462,,,
문평IC,35.06717809,126.5969292,,,
문학IC,37.4362996,126.6757582,,,
문흥JC,35.19302674,126.9294634,,,
물금IC,35.30853362,129.0121419,,,
물왕TG,37.39116602,126.828976,,,
미사IC,37.58097442,127.1884979,,,
민락IC,37.74775416,127.1219165,,,
밀양IC,35.50170321,128.7907267,,,
밀양JC,35.51920547,128.7957648,,,
반포IC,37.50330124,127.018324,,,
발안IC,37.12362148,126.882328,,,
배내골IC,35.52729527,129.0074513,,,
백양사IC,35.42833467,126.8034841,,,
벌교IC,34.83859232,127.3255942,,,
범서IC,35.61791608,129.2836157,,,
범서IC~,35.61791608,129.2836157,,,
별내IC,37.6593192,127.1172838,,,
보성IC,34.81396849,127.107246,,,
보은IC,36.45669342,127.720579,,,
봉담IC,37.22947738,126.9563776,,,
봉담TG,37.2242561,126.9597294,,,
봉대산JC,37.60725067,126.8503265,,,
부곡IC,37.32387183,126.9605834,,,
부산TG,35.27894643,129.1063665,,,
부산울산시점,0,0,,,울산JC/해운대역
부안IC,35.72628113,126.7688758,,,
부여IC,36.29774168,126.8516915,,,
부천IC,37.52419119,126.777015,,,
부평IC,37.52382271,126.7222046,,,
북강릉IC,37.83563797,128.8147258,,,
북고양IC,37.719586,126.7973899,,,
북공주JC,36.50275507,127.1037059,,,
북광산IC,35.2361763,126.8235301,,,
북광주IC,35.26106031,126.8944057,,,
북구미하이패스IC,36.1431189,128.3017963,,,
북남원IC,35.43872997,127.3122567,,,
북다사IC,35.88635881,128.4648361,,,
북단양IC,37.01494322,128.2884621,,,
북달성TG,35.87103826,128.4592052,,,
북대구IC,35.90915231,128.5811483,,,
북대전IC,36.41133194,127.381433,,,
북로JC,37.59544825,126.8332563,,,
북무안IC,35.01370184,126.4328121,,,
북부산TG,35.22141458,128.9416773,,,
북상주IC,36.53113288,128.1690548,,,
북수원IC,37.31855834,126.9909475,,,
북안IC,35.92709776,129.0107339,,,
북양양IC,38.15445736,128.5859698,,,
북여주IC,37.37281796,127.5265382,,,
북영천IC,36.03226643,128.9163325,,,
북오산IC,37.18363358,127.056718,,,
북원주IC,37.42066917,127.9232182,,,
북의성IC,36.41835511,128.6859964,,,
북의왕IC,37.40645505,126.987675,,,
북인천IC,37.55405354,126.6113118,,,
북진천IC,36.94543268,127.4513205,,,
북창원IC,35.28660272,128.6050966,,,
북창원IC ,35.28660272,128.6050966,,,
북천안IC,36.89675612,127.1891444,,,
북청계IC,37.39869952,127.0064961,,,
북청라IC,37.5592742,126.6230779,,,
북충주IC,37.03485552,127.7983247,,,
북통영IC,34.88917784,128.4127942,,,
북평택TG,37.06642939,126.9925158,,,
북현풍Hi,35.70438657,128.4373113,,북현풍하이패스IC,
불갑산하이패스IC,35.24180244,126.5088145,,,
비룡JC,36.34514556,127.4823866,,,
비봉IC,37.243649,126.8822634,,,
사리현IC,37.68861317,126.8414808,,,
사상IC,35.15263466,128.9716905,,,
사천IC,35.11808833,128.090858,,,
산곡JC,37.48206435,127.241965,,,
산내JC,36.28199669,127.4485347,,,
산단IC,37.82770427,126.7769669,,,
산본IC,37.37577372,126.9279183,,,
산월IC,35.20313328,126.8393974,,,
산인JC,35.27236388,128.4807087,,,
산청IC,35.4272178,127.8598528,,,
삼락IC,35.19337488,128.9820763,,,
삼랑진IC,35.39964047,128.8220355,,,
삼례IC,35.92489142,127.0787952,,,
삼막IC,37.42666345,126.9132512,,,
삼성Hi,37.02486262,127.4829059,,,
삼척IC,37.4507713,129.1293357,,,
상관IC,35.75834583,127.2189698,,,
상동IC,35.318621,128.943977,,,
상매JC,35.89206059,128.7018264,,,
상일IC,37.54886622,127.179468,,,
상주IC,36.42306542,128.2131802,,,
상주JC,36.37518743,128.2686959,,,
상주JCT,36.36609378,128.2391293,,,
새말IC,37.44665947,128.0671711,,,
생초IC,35.48155373,127.8248137,,,
서공주IC,36.45533067,127.0584455,,,
서공주JC,36.48555001,127.0624946,,,
서광산IC,35.11857034,126.7325783,,,
서광주IC,35.18481474,126.8822386,,,
서군위IC,36.24637317,128.4799015,,,
서김제IC,35.83444697,126.8394852,,,
서김포IC,37.6640232,126.6563098,,,
서김해IC,35.22075442,128.8456448,,,
서남원IC,35.3611304,127.3375766,,,
서논산IC,36.22459807,127.0530235,,,
서대구IC,35.87789382,128.5310499,,,
서대구TG,35.88453639,128.5260795,,,
서대전IC,36.291751,127.3274743,,,
서대전JC,36.29413572,127.3160179,,,
서마산IC,35.23514134,128.5622313,,,
서변IC,35.93297349,128.59812,,,
서부산IC,35.15593979,128.9516853,,,
서부산TG,35.17234652,128.8728313,,,
서부여IC,36.23948989,126.7899619,,,
서분당IC,37.36117875,127.0628657,,,
서산IC,36.80670491,126.5713469,,,
서상IC,35.66582256,127.6737114,,,
서서울TG,37.35581502,126.8634689,,,
서세종IC,36.49492331,127.1949753,,,
서수지IC,37.32415676,127.0566565,,,
서수지TG,37.32359857,127.0557174,,,
서순천IC,35.00316321,127.4829664,,,
서안동IC,36.58868153,128.6265794,,,
서안산IC,37.35151414,126.8015492,,,
서안성IC,37.03384705,127.159978,,,
서양양IC,37.99506928,128.5325616,,,
서여주IC,37.30432383,127.5823853,,,
서영암IC,34.75424828,126.5295707,,,
서영암TG,34.73706148,126.5709347,,,
서오산JC,37.17646754,126.998356,,,
서오산TG,37.18880797,127.010019,,,
서오창IC,36.72786253,127.4181886,,,
서용인IC,37.24081491,127.154111,,,
서용인JC,37.26879112,127.1862625,,,
서용인JCT,37.26891801,127.1863631,,,
서운JC,37.5267688,126.7520826,,,
서울TG,37.36519757,127.1035219,,,
서울산IC,35.5540589,129.1241981,,,
서울제물포선종점,0,0,,,도화IC?
서울주JC,35.51567745,129.1057524,,,
서원주IC,37.3942252,127.8588868,,,
서의성IC,36.40113523,128.4107439,,,
서이천IC,37.27754221,127.3912083,,,
서인천IC,37.52353146,126.6905805,,,
서전주IC,35.82747267,127.0339975,,,
서종IC,37.63428646,127.3701723,,,
서진주IC,35.18341859,128.0408792,,,
서창JC,37.43293033,126.7385174,,,
서천IC,36.09880683,126.6898032,,,
서천안IC,36.76151712,127.1379914,,,
서청주IC,36.65172535,127.4211227,,,
서초IC,37.48358055,127.0257833,,,
서충주IC,37.00992209,127.6713343,,,
서판교IC남측,37.38836766,127.0700431,,서판교IC,
서판교IC북측,37.38836766,127.0700431,,서판교IC,
서평택IC,36.99805223,126.8691531,,,
서평택JC,37.05425965,126.8885646,,,
서포항IC,36.07101141,129.2193955,,,
서하남IC,37.51233551,127.151574,,,
서함양IC,35.54209424,127.7127096,,서함양하이패스ic,
서해안선시점,0,0,,,금천IC/죽림JC
서해안선종점,0,0,,,금천IC/죽림JC
서호학산IC,34.73629805,126.574293,,,
석곡IC,35.12766333,127.247014,,,
석수IC,37.42402086,126.9062893,,,
선단IC,37.84630209,127.1705245,,,
선동IC,37.58097442,127.1884979,,,
선산IC,36.23892828,128.2614311,,,
선운산IC,35.50970886,126.6832359,,,
설악IC,37.66963091,127.4956174,,,
성남IC,37.42725163,127.1234386,,,
성남TG,37.43552694,127.1230715,,,
성서IC,35.84971271,128.5219939,,,
성주IC,35.91912524,128.2494994,,,
세곡터널남측,37.45694541,127.0952516,,세곡터널,
세곡터널북측,37.45694541,127.0952516,,세곡터널,
소양IC,35.86447013,127.236547,,,
소하IC,37.4383585,126.8983752,,,
소흘IC,37.79887851,127.1318924,,,
소흘JC,37.81519758,127.1427104,,,
속리산IC,36.45563828,127.7869169,,,
속사IC,37.63060491,128.4896613,,,
속초IC,38.20424495,128.5174756,,,
송내IC,37.4876872,126.7471236,,,
송도IC,37.40325331,126.652675,,,
송산마도IC,37.20969273,126.7598019,,,
송악IC,36.93459359,126.7788252,,,
송추IC,37.71072251,126.9711714,,,
송탄IC,37.03478517,127.1080261,,,
송파IC,37.47476174,127.1287929,,,
수동IC,37.69293168,127.3285851,,,
수동휴게소IC,37.73031057,127.292544,,,
수성IC,35.83588123,128.6923422,,,
수원신갈IC,37.26700987,127.1038022,,,
순창IC,35.36404568,127.1325542,,,
순천IC,34.98730437,127.5150078,,,
순천JC,34.99108333,127.539001,,,
순천만IC,34.89707994,127.4797495,,,
순천완주선시점,0,0,,,완주JC 동순천IC
순천완주선종점,0,0,,,완주JC 동순천IC
승주IC,35.01455258,127.3749267,,,
시점,37.63771427,126.4824338,,,
시점(영암군학산면은곡리),0,0,,,서명암IC
시화IC,37.30912879,126.7238301,,,
시흥IC,37.45579475,126.7974312,,,
시흥TG,37.45109443,126.8034563,,,
신갈JC,37.29001534,127.1036488,,,
신공항IC,0,0,,,
신녕IC,36.04265189,128.8109944,,,
신둔Hi,37.2761303,127.4411821,,,
신림IC,37.22567663,128.0876563,,,
신북IC,37.9140812,127.217047,,,
신불IC,37.45807016,126.4896014,,,
신양IC,36.59523227,126.868263,,,
신월IC,37.52555125,126.8348646,,,
신월천교,37.41571123,127.3015086,,,
신천IC,37.43065308,126.7813647,,,
신탄진IC,36.43956433,127.4198797,,,
신평JC,37.38638711,127.8933449,,,
심곡터널남측,36.96394423,128.3444759,,심곡터널,
심곡터널북측,36.96394423,128.3444759,,심곡터널,
아산IC,36.82127113,126.9766755,,,
아산현충사IC,36.78838095,127.0464878,,,
안녕IC,37.19559073,127.0136467,,,
안동JC,36.4321548,128.6215449,,,
안산IC,37.34880715,126.8420197,,,
안산JC,37.34420591,126.860163,,,
안성IC,36.99501487,127.1539742,,,
안성JC,37.03597841,127.1389855,,,
안영IC,36.28392254,127.3772769,,,
안현JC,37.43729398,126.8165772,,,
양산IC,35.37890015,129.0518572,,,
양산JC,35.33077636,129.034607,,,
양양IC,38.06705649,128.600498,,,
양양JC,38.06705649,128.600498,,,
양재IC,37.46311128,127.0400426,,,
양주IC,37.84286997,127.0855219,,,
양주TG,37.67946975,126.918085,,,
양지IC,37.23938788,127.2943697,,,
양촌Hi,36.15893647,127.216331,,,
양평IC,37.52187992,127.4470052,,,
어연IC,37.05685233,126.9872011,,,
언양JC,35.56657203,129.1299897,,,
여수고가교,37.42744811,127.1292812,,,
여의도JC,37.52089678,126.9270448,,,
여주IC,37.2528496,127.6535734,,,
여주JC,37.23203663,127.5902803,,,
연경TG,35.93621994,128.6114212,,,
연무IC,36.1475956,127.0603364,,,
연성IC,37.38852212,126.7979376,,,
연수JC,37.40944689,126.6295227,,,
연풍IC,36.75903635,127.9923819,,,
연화산IC,35.08251083,128.1913242,,,
영광IC,35.29903711,126.5576456,,,
영덕IC,36.38522898,129.3708896,,,
영동IC,36.26880475,127.834128,,,
영동고속국도시점,0,0,,,서창IC도착강릉JC
영락IC,35.27536846,129.1085638,,,
영산IC,35.45432635,128.5109018,,,
영양IC,36.49392649,129.1222366,,,
영종IC,37.4753489,126.5059759,,,
영주IC,36.76924457,128.5715488,,,
영천IC,35.9223816,128.951449,,,
영천JC,35.91892663,129.0055776,,,
영천JCT,35.91892663,129.0055776,,,
예산수덕IC,36.67716158,126.7753445,,예산수덕사IC,
예천IC,36.66785199,128.5418398,,,
오산IC,37.14345171,127.0841923,,,
오성IC,37.01130521,126.9938785,,,
오수IC,35.55392148,127.3214289,,,
오창IC,36.71467526,127.4426963,,,
오창JC,36.74121474,127.4635713,,,
옥계IC,37.61917873,129.0374789,,,
옥곡IC,34.98599553,127.7094938,,,
옥과IC,35.25899786,127.1137455,,,
옥련IC,37.42511417,126.6366353,,,
옥산IC,36.65378602,127.3727836,,,
옥산JC,36.71349514,127.3488064,,,
옥정IC,37.83531194,127.1084148,,,
옥천IC,36.3169855,127.5578189,,,
옥포JC,35.79272306,128.4636728,,,
온양IC,35.41368653,129.2606255,,,
완주IC,35.89868228,127.151238,,,
완주JC,35.88371333,127.1733323,,,
왜관IC,35.97732693,128.4323331,,,
용봉IC,35.18418983,126.8999881,,,
용인IC,37.2567059,127.2097088,,,
운수IC,35.15959164,126.7823196,,,
운중터널남측,37.38598062,127.0511316,,운중터널,
운중터널북측,37.38598062,127.0511316,,운중터널,
울산IC,35.55275432,129.2597395,,,
울산JCT,35.56657203,129.1299897,,,
울산TG,35.55790602,129.2494659,,,
울주JC,35.50234685,129.2584626,,,
울주JCT,35.56657203,129.1299897,,,
원주IC,37.40099307,127.950321,,,
원주JC,37.38720794,127.9312945,,,
월곶JC,37.38766602,126.7532414,,,
월롱IC,37.79545818,126.7857303,,,
유구IC,36.56511779,126.9756021,,,
유성IC,36.36419942,127.3311203,,,
유성JC,36.3891296,127.3400491,,,
유천Hi,36.3164144,127.3911034,,,
율암IC,35.88328317,128.7029397,,,
율암TG,35.88833246,128.7022837,,,
음성IC,36.98887092,127.6193802,,,
의성IC,36.29207306,128.5807334,,,
의정부IC,37.69329203,127.0548227,,,
이천IC,37.24526128,127.4965891,,,
익산IC,35.9908159,127.1139661,,,
익산JC,35.94302027,127.0898652,,,
인제IC,37.91414301,128.2885011,,,
인제터널,38.04847861,128.1598298,,,
인천TG,37.52402911,126.7483675,,,
인천공항TG,37.5698501,126.6681214,,,
인천김포민자고속도로시점,0,0,,,남항교차로  서김포통진IC
인천대교TG,37.47013794,126.5130279,,,
인천시점,37.63771427,126.4824338,,,
일로IC,34.85794341,126.4811807,,,
일산IC,37.63619031,126.8046874,,,
일죽IC,37.09041126,127.451396,,,
일직JC,37.42378777,126.8948339,,,
임고Hi,35.96564461,128.9392534,,,
임실IC,35.63095046,127.3155592,,,
자유로IC,37.61763077,126.798701,,,
잠원IC,37.50975388,127.0160563,,,
장성IC,35.28553266,126.7869627,,,
장성JC,35.32995119,126.8044572,,,
장성물류IC,35.35021964,126.7618727,,,
장수IC,37.46681041,126.7546003,,,
장수JC,35.73182464,127.6071328,,,
장안IC,35.32757335,129.236462,,,
장유IC,35.19723387,128.8083421,,,
장지IC,37.40342915,127.2367266,,,
장흥IC,34.70824325,126.9062558,,,
전주IC,35.87846861,127.0553123,,,
점촌함창IC,36.58613238,128.1548833,,,
정남IC,37.18493386,126.9707778,,,
정안IC,36.62496027,127.1204245,,,
정왕IC,37.38012483,126.7310908,,,
정읍IC,35.58075774,126.8330732,,,
제천IC,37.13316679,128.1425714,,,
제천JC,37.08006881,128.1749532,,,
조남JC,37.36879598,126.8689275,,,
조안IC,37.53263244,127.3021121,,,
조암IC,37.11872551,126.8184018,,,
조양IC,37.75714355,127.7837497,,,
종점(순천시해룡면성산리),0,0,,,해룡IC
주암IC,35.06696194,127.2705729,,,
줄포IC,35.59674336,126.6965105,,,
중동IC,37.50612016,126.7480657,,,
중랑IC,37.61123807,127.1145988,,,
중앙고속국도종점,0,0,,,
중앙탑Hi,37.02110036,127.8380067,,중앙탑하이패스IC,
증평IC,36.77166392,127.5020484,,,
지곡IC,35.58702265,127.7694695,,,
지리산IC,35.48412408,127.5891539,,,
지수IC,35.22611237,128.2720853,,,
지천IC,35.93441604,128.5322114,,,
진교IC,35.04119884,127.9050225,,,
진례IC,35.2610677,128.7554722,,,
진례JC,35.22957141,128.773834,,,
진부IC,37.652168,128.5624289,,,
진성IC,35.19194262,128.2256464,,,
진안IC,35.77224124,127.4435576,,,
진영IC,35.29974186,128.767221,,,
진영JC,35.27894076,128.719815,,,
진월IC,34.98020319,127.7482643,,,
진주IC,35.16185,128.1246093,,,
진주JC,35.13812211,128.0980991,,,
진천IC,36.86835811,127.4751227,,,
진해IC,35.13629956,128.7758188,,,
창녕IC,35.54242844,128.4765539,,,
창원1터널(동측),35.28927201,128.5767456,,창원1터널,
창원1터널(서측),35.28927201,128.5767456,,창원1터널,
창원JC,35.27518268,128.6413397,,,
창평IC,35.23238226,127.001505,,,
천안IC,36.8260721,127.1686282,,,
천안JC,36.76979955,127.1808347,,,
천진암교,0,0,,,
철원JC,38.14476727,127.3118334,,,
청계TG,37.39281879,127.0249843,,,
청도IC,35.65258814,128.7477844,,,
청량IC,35.47900651,129.2819521,,,
청북IC,37.04869079,126.9194738,,,
청송IC,36.45522233,129.0267802,,,
청양IC,36.37425466,126.9507799,,,
청주IC,36.62613078,127.3834234,,,
청주JC,36.56476432,127.4306326,,,
청주강서Hi,36.61697879,127.4195508,,청주강서하이패스IC,
청주영덕선종점,0,0,,,청주JC / 낙동JC
청통와촌,35.97057957,128.8292419,,,
청통와촌IC,35.97057957,128.8292419,,,
초정IC,35.23206153,128.9793576,,,
추부IC,36.19222158,127.485147,,,
추풍령IC,36.19826774,128.0019829,,,
축동IC,35.08641621,128.0433383,,,
춘장대IC,36.16772228,126.6014787,,,
춘천IC,37.84236885,127.7667689,,,
춘천JC,37.75608492,127.7879416,,,
춘천TG,37.83933481,127.7760756,,,
충주IC,36.97849,127.8465633,,,
충주JC,37.04016776,127.7388481,,,
칠곡IC,35.93527536,128.5352718,,,
칠곡JC,35.90751966,128.4915591,,,
칠곡물류IC,35.95733893,128.4548448,,,
칠서IC,35.3278878,128.5054789,,,
칠원JC,35.28338697,128.510515,,,
칠원JC ,35.28338697,128.510515,,,
칠원TG,35.28039325,128.513528,,,
탄천IC,36.29886008,127.0673374,,,
태인IC,35.66136913,126.9273619,,,
토평IC,37.58259824,127.157608,,,
통도사Hi,35.48862502,129.0892884,,,
통도사IC,35.50001172,129.0957145,,,
통영IC,34.86658582,128.4427162,,,
통일로IC,37.67400101,126.8858171,,,
퇴계원IC,37.63882457,127.1333719,,,
파군재IC,35.93639898,128.640772,,,
판교IC,37.39787841,127.1006169,,,
판교JC,37.4058447,127.0947136,,,
판암IC,36.31696123,127.4722577,,,
팔곡JC,37.30905911,126.8947232,,,
팔공산IC,35.90661836,128.6402509,,,
팔탄JC,37.19175519,126.8721106,,,
평창IC,37.59007432,128.4135233,,,
평촌IC,37.38191056,126.9659909,,,
평택JC,37.03153299,126.9715605,,,
평택고덕IC,37.02583328,127.0334137,,,
포곡IC,37.27950885,127.2125549,,,
포천IC,37.88165355,127.2194707,,,
포항IC,36.04160479,129.3165746,,,
풍기IC,36.85264913,128.530444,,,
하남IC,37.52580036,127.2201118,,,
하남JC,37.53191145,127.1963166,,,
하동IC,35.00249287,127.8142281,,,
하산운터널남측,37.37666421,127.0653997,,하산운터널,
하산운터널북측,37.37666421,127.0653997,,하산운터널,
하조대IC,38.02520089,128.6945314,,,
학의JC,37.3872531,127.0015222,,,
학익JC,37.43690768,126.6513489,,,
한남IC,37.52171897,127.0177376,,,
한림IC,35.2948481,128.8142762,,,
함안IC,35.28905174,128.3901574,,,
함양IC,35.53273074,127.7498846,,,
함양JC,35.53468832,127.7699088,,,
함평IC,35.09917804,126.4815872,,,
함평JC,35.029437,126.4856091,,,
해룡IC,34.91507007,127.5459054,,,
해미IC,36.71195484,126.5624364,,,
해운대IC,35.21136612,129.2048223,,,
해인사IC,35.6964392,128.1839748,,,
행주산성JC,37.60174642,126.8379645,,,
향남IC,37.12974583,127.0005222,,,
헌릉IC,37.46484855,127.0925182,,,
현풍JC,35.67495857,128.4347909,,,
호법JC,37.23505839,127.427165,,,
홍성IC,36.59168993,126.5603673,,,
홍천IC,37.67795313,127.8558673,,,
화도IC,37.63180759,127.3112998,,,
화도JC,37.63091021,127.3180582,,,
화산JC,36.02366963,128.8943699,,,
화산JCT,36.02366963,128.8943699,,,
화서IC,36.44253669,127.9624028,,,
화성IC,37.18935146,126.8115711,,,
화성JC,37.19603927,126.9639592,,,
화성광주선시점,0,0,,,동탄IC / 곤지암JC
화원옥포IC,35.80043943,128.4790887,,,
화원옥포TG,35.79722887,128.4798698,,,
활천IC,35.71180193,129.1909996,,,
황간IC,36.22205114,127.9061455,,,
황천IC,35.14678246,127.4567135,,,
회덕JC,36.40467689,127.4193174,,,
회인IC,36.48676072,127.6086588,,,
횡성IC,37.50496797,127.970058,,,
흥덕IC,37.27869185,127.0793453,,,
흥도IC,37.62154144,126.8585249,,,
흥천이포IC,37.37844801,127.5157928,,,
